City_ID,City,Lat,Lng,Max Temp,Humidity,Cloudiness,Wind Speed,Country,Date
0,aureliana,10.89,121.98,79.2,73,90,4.34,PH,1585692931
1,bethel,41.37,-73.41,48.2,61,90,6.93,US,1585692931
2,faget,45.85,22.18,27.0,79,94,5.82,RO,1585692932
3,mataura,-46.19,168.86,53.01,98,23,1.9,NZ,1585692932
4,hervey bay,-25.3,152.85,73.99,94,20,6.93,AU,1585692932
5,samarai,-10.62,150.67,79.43,83,99,6.04,PG,1585692933
6,namibe,-15.2,12.15,73.96,71,17,9.08,AO,1585692933
7,punta arenas,-53.15,-70.92,53.6,66,40,10.29,CL,1585692933
8,thompson,55.74,-97.86,21.2,67,75,20.8,CA,1585692934
9,cidreira,-30.18,-50.21,74.84,81,99,13.53,BR,1585692935
10,petauke,-14.24,31.33,63.39,62,2,3.42,ZM,1585692935
11,arraial do cabo,-22.97,-42.03,78.8,83,75,9.17,BR,1585692936
12,nikolskoye,59.7,30.79,30.99,74,75,8.95,RU,1585692936
13,new norfolk,-42.78,147.06,62.01,81,20,3.36,AU,1585692936
14,rikitea,-23.12,-134.97,78.69,73,100,8.08,PF,1585692936
15,galveston,29.37,-94.97,77.0,47,1,18.34,US,1585692927
16,saint-philippe,-21.36,55.77,77.0,83,75,9.17,RE,1585692692
17,bundaberg,-24.85,152.35,69.8,94,8,6.93,AU,1585692937
18,camargo,27.67,-105.17,79.61,9,96,4.61,MX,1585692937
19,marsa matruh,31.35,27.25,59.0,77,0,11.41,EG,1585692938
20,virginia beach,36.85,-75.98,48.99,87,90,11.41,US,1585692814
21,saskylakh,71.92,114.08,-6.92,89,96,13.18,RU,1585692939
22,tuktoyaktuk,69.45,-133.04,8.6,60,40,19.46,CA,1585692939
23,bambous virieux,-20.34,57.76,78.01,94,75,9.48,MU,1585692939
24,vaini,-21.2,-175.2,82.4,83,40,9.17,TO,1585692940
25,airai,-8.93,125.41,60.51,71,92,1.12,TL,1585692940
26,atuona,-9.8,-139.03,82.18,80,1,15.46,PF,1585692940
27,ballina,-28.87,153.57,71.01,94,40,6.93,AU,1585692940
28,codrington,-38.27,141.97,56.68,84,4,7.27,AU,1585692941
29,jamestown,42.1,-79.24,45.0,81,90,8.05,US,1585692655
30,letlhakeng,-24.09,25.03,71.15,36,100,6.15,BW,1585692941
31,sobolevo,54.43,31.9,26.31,80,23,6.04,RU,1585692941
32,husavik,66.04,-17.34,39.2,60,90,35.57,IS,1585692942
33,barrow,71.29,-156.79,12.2,66,1,17.22,US,1585692942
34,loreto,22.27,-101.97,78.44,20,85,12.97,MX,1585692942
35,cape town,-33.93,18.42,63.0,67,20,18.34,ZA,1585692796
36,matara,5.95,80.54,75.16,87,5,6.13,LK,1585692943
37,lebu,-37.62,-73.65,58.98,69,1,18.77,CL,1585692943
38,mayumba,-3.43,10.66,80.6,84,27,7.05,GA,1585692944
39,ponta do sol,32.67,-17.1,59.0,67,20,16.11,PT,1585692944
40,ushuaia,-54.8,-68.3,50.0,71,75,6.93,AR,1585692944
41,hithadhoo,-0.6,73.08,83.03,70,50,9.71,MV,1585692945
42,popondetta,-8.75,148.25,77.54,82,100,3.09,PG,1585692945
43,ogaminana,7.59,6.22,82.17,70,99,7.81,NG,1585692945
44,williamsport,41.24,-77.0,48.2,81,90,4.7,US,1585692945
45,qaanaaq,77.48,-69.36,7.83,73,91,2.84,GL,1585692946
46,hessisch oldendorf,52.17,9.25,33.8,91,0,2.24,DE,1585692946
47,rio gallegos,-51.62,-69.22,62.6,33,40,17.22,AR,1585692860
48,chokurdakh,70.63,147.92,-6.36,91,90,5.44,RU,1585692946
49,bengkulu,-3.8,102.27,77.41,81,100,3.33,ID,1585692947
50,ixtapa,20.7,-105.2,81.0,74,40,11.41,MX,1585692947
51,dawson creek,55.77,-120.24,10.4,72,75,6.93,CA,1585692947
52,ismailia,30.6,32.27,63.27,58,0,12.19,EG,1585692887
53,lagoa,39.05,-27.98,57.34,68,100,27.65,PT,1585692948
54,bonavista,48.65,-53.11,34.0,84,100,1.99,CA,1585692948
55,albany,42.6,-73.97,48.2,69,75,5.82,US,1585692780
56,ambon,-3.7,128.18,82.83,74,53,6.67,ID,1585692949
57,chuy,-33.7,-53.46,69.28,72,84,14.67,UY,1585692949
58,georgetown,5.41,100.34,82.4,88,20,3.76,MY,1585692949
59,puerto ayora,-0.74,-90.35,82.4,69,20,6.93,EC,1585692949
60,bredasdorp,-34.53,20.04,64.4,59,28,5.82,ZA,1585692950
61,tasiilaq,65.61,-37.64,26.6,32,2,25.28,GL,1585692950
62,salalah,17.02,54.09,80.6,88,20,4.7,OM,1585692950
63,kapaa,22.08,-159.32,75.2,73,40,13.87,US,1585692951
64,half moon bay,37.46,-122.43,71.01,63,20,12.75,US,1585692951
65,axim,4.87,-2.24,81.32,86,62,6.91,GH,1585692951
66,coquimbo,-29.95,-71.34,62.6,82,40,13.87,CL,1585692952
67,belaya gora,68.53,146.42,2.93,93,100,2.91,RU,1585692952
68,hermanus,-34.42,19.23,62.01,85,46,14.76,ZA,1585692952
69,avarua,-21.21,-159.78,86.0,79,75,9.75,CK,1585692953
70,saint george,37.1,-113.58,69.8,26,1,5.82,US,1585692821
71,east london,-33.02,27.91,68.85,84,100,20.4,ZA,1585692953
72,los llanos de aridane,28.66,-17.92,66.2,72,20,5.82,ES,1585692953
73,ise,34.48,136.7,55.0,93,75,4.7,JP,1585692953
74,pevek,69.7,170.31,-0.89,92,49,4.16,RU,1585692954
75,severo-kurilsk,50.68,156.12,35.1,85,100,15.08,RU,1585692954
76,asosa,10.07,34.53,74.77,12,4,3.58,ET,1585692954
77,cheyenne,41.14,-104.82,66.0,19,20,27.51,US,1585692955
78,carnarvon,-24.87,113.63,68.0,82,96,10.29,AU,1585692955
79,stokmarknes,68.56,14.91,33.01,74,100,4.0,NO,1585692955
80,leningradskiy,69.38,178.42,7.57,91,13,5.39,RU,1585692956
81,flinders,-34.58,150.86,71.01,100,75,3.36,AU,1585692956
82,marystown,47.17,-55.15,38.12,97,92,12.55,CA,1585692957
83,souillac,-20.52,57.52,78.01,94,75,6.2,MU,1585692957
84,lorengau,-2.02,147.27,81.73,83,86,10.89,PG,1585692958
85,waingapu,-9.66,120.26,78.12,76,73,3.62,ID,1585692958
86,vostok,46.49,135.88,29.75,80,100,4.25,RU,1585692713
87,road town,18.42,-64.62,78.01,75,0,5.99,VG,1585692959
88,kaitangata,-46.28,169.85,54.0,90,2,1.99,NZ,1585692959
89,hirara,24.8,125.28,73.4,94,75,5.82,JP,1585692960
90,inhambane,-23.86,35.38,74.14,70,0,9.1,MZ,1585692960
91,owosso,43.0,-84.18,43.0,80,90,10.29,US,1585692960
92,busselton,-33.65,115.33,54.0,74,98,6.24,AU,1585692961
93,tommot,58.96,126.29,19.83,92,100,12.28,RU,1585692961
94,humboldt,40.67,-123.92,53.01,93,75,11.41,US,1585692961
95,gat,31.61,34.76,62.6,72,20,10.29,IL,1585692961
96,charters towers,-20.1,146.27,67.84,84,0,5.46,AU,1585692961
97,yar-sale,66.83,70.83,7.77,92,25,8.59,RU,1585692962
98,port elizabeth,-33.92,25.57,62.6,77,26,19.46,ZA,1585692962
99,ilulissat,69.22,-51.1,3.2,65,97,17.22,GL,1585692963
100,pisco,-13.7,-76.22,71.6,30,75,5.82,PE,1585692963
101,cayenne,4.93,-52.33,80.6,83,90,8.05,GF,1585692963
102,diego de almagro,-26.37,-70.05,80.2,23,0,11.39,CL,1585692963
103,maneadero,31.72,-116.57,63.0,85,100,4.0,MX,1585692964
104,tambopata,-12.73,-69.18,86.27,61,98,3.42,PE,1585692964
105,ludvika,60.15,15.19,42.01,64,97,10.29,SE,1585692964
106,butaritari,3.07,172.79,83.55,78,82,18.19,KI,1585692965
107,tiksi,71.69,128.87,-5.22,87,100,4.23,RU,1585692965
108,hobart,-42.88,147.33,61.0,81,20,3.36,AU,1585692697
109,kyren,51.68,102.14,31.75,57,49,6.38,RU,1585692965
110,rahimatpur,17.6,74.2,78.71,33,33,2.89,IN,1585692966
111,mar del plata,-38.0,-57.56,64.99,59,40,11.41,AR,1585692966
112,onda,39.97,-0.25,55.4,82,75,9.17,ES,1585692944
113,rudnichnyy,59.62,52.47,23.11,96,100,8.19,RU,1585692967
114,faanui,-16.48,-151.75,82.45,77,0,11.14,PF,1585692967
115,vuktyl,63.86,57.31,13.53,92,99,2.3,RU,1585692968
116,hasaki,35.73,140.83,52.0,93,75,4.7,JP,1585692968
117,cockburn town,21.46,-71.14,77.14,68,0,9.75,TC,1585692968
118,tigil,57.8,158.67,22.57,95,100,9.06,RU,1585692968
119,puerto baquerizo moreno,-0.9,-89.6,86.0,70,20,6.93,EC,1585692969
120,nguru,12.88,10.45,87.55,20,82,4.61,NG,1585692969
121,slave lake,55.28,-114.77,6.8,77,90,14.99,CA,1585692970
122,omboue,-1.57,9.26,80.37,85,34,7.07,GA,1585692970
123,boyolangu,-8.12,111.89,76.96,82,100,1.19,ID,1585692970
124,san policarpo,12.18,125.51,80.13,76,69,5.61,PH,1585692970
125,tamandare,-8.76,-35.1,81.54,76,97,8.3,BR,1585692971
126,kodiak,57.79,-152.41,37.4,34,1,4.7,US,1585692971
127,dong hoi,17.48,106.6,77.09,92,83,5.53,VN,1585692971
128,grindavik,63.84,-22.43,35.6,78,75,18.34,IS,1585692972
129,rawson,-43.3,-65.1,69.08,40,20,24.27,AR,1585692972
130,aksu,41.12,80.26,47.28,35,99,5.88,CN,1585692972
131,leh,34.17,77.58,25.16,25,100,5.1,IN,1585692972
132,ilam,26.92,87.92,59.29,27,0,4.25,NP,1585692973
133,geraldton,-28.77,114.6,62.6,77,65,8.05,AU,1585692973
134,kamiiso,41.82,140.65,39.2,86,75,6.93,JP,1585692974
135,constitucion,-35.33,-72.42,64.17,57,23,18.68,CL,1585692974
136,fortuna,40.6,-124.16,54.0,93,75,11.41,US,1585692974
137,comodoro rivadavia,-45.87,-67.5,64.4,59,20,1.12,AR,1585692764
138,nacala,-14.54,40.67,76.08,85,1,11.48,MZ,1585692975
139,khatanga,71.97,102.5,-15.14,89,58,9.22,RU,1585692975
140,vila franca do campo,37.72,-25.43,53.6,66,20,10.29,PT,1585692975
141,tam ky,15.57,108.48,78.8,94,20,6.93,VN,1585692975
142,jumla,29.27,82.18,47.21,26,100,0.98,NP,1585692976
143,saldanha,-33.01,17.94,60.8,77,0,14.99,ZA,1585692976
144,mabaruma,8.2,-59.78,80.47,69,98,8.48,GY,1585692976
145,guerrero negro,27.98,-114.06,79.32,21,100,6.44,MX,1585692976
146,sibolga,1.74,98.78,77.43,78,76,2.95,ID,1585692977
147,tautira,-17.73,-149.15,87.8,66,2,6.93,PF,1585692977
148,yellowknife,62.46,-114.35,10.0,39,20,6.93,CA,1585692977
149,santa rosa,14.31,121.11,78.8,78,20,4.09,PH,1585692977
150,pimentel,-6.84,-79.93,77.4,68,30,13.65,PE,1585692978
151,nanortalik,60.14,-45.24,33.19,89,32,15.05,GL,1585692978
152,kieta,-6.22,155.63,79.02,81,99,4.5,PG,1585692978
153,evensk,61.95,159.23,8.38,92,100,3.71,RU,1585692737
154,abu zabad,12.35,29.25,83.1,12,0,11.18,SD,1585692978
155,avera,33.19,-82.53,62.6,86,90,6.44,US,1585692979
156,tandil,-37.32,-59.13,64.0,64,45,1.99,AR,1585692979
157,hilo,19.73,-155.09,75.99,73,90,5.55,US,1585692979
158,mayo,38.89,-76.51,48.99,70,90,12.75,US,1585692979
159,alnashi,56.19,52.48,40.46,85,100,6.04,RU,1585692980
160,flin flon,54.77,-101.86,19.4,67,90,12.75,CA,1585692980
161,lata,40.16,-8.33,44.01,87,20,4.7,PT,1585692980
162,guigue,10.09,-67.78,83.25,44,91,4.47,VE,1585692981
163,klaksvik,62.23,-6.59,44.6,87,100,27.51,FO,1585692981
164,maningrida,-12.07,134.27,76.41,90,77,6.87,AU,1585692981
165,pancas,-19.23,-40.85,75.99,74,93,4.61,BR,1585692982
166,tual,-5.67,132.75,85.17,71,100,4.25,ID,1585692982
167,tela,15.78,-87.45,91.4,79,20,6.93,HN,1585692982
168,niquelandia,-14.47,-48.46,77.65,62,3,3.02,BR,1585692982
169,alofi,-19.06,-169.92,84.2,89,75,6.93,NU,1585692912
170,peniche,39.36,-9.38,50.0,70,40,4.7,PT,1585692983
171,gomel,52.43,30.98,26.6,63,44,4.47,BY,1585692703
172,katwa,23.64,88.13,76.24,23,0,2.82,IN,1585692983
173,kidal,18.44,1.41,84.58,12,0,9.84,ML,1585692983
174,namatanai,-3.67,152.43,81.79,76,100,8.34,PG,1585692984
175,pocone,-16.26,-56.62,86.25,68,46,3.04,BR,1585692984
176,faya,18.39,42.45,62.6,55,0,5.82,SA,1585692984
177,kalawit,8.07,122.52,76.32,85,53,7.34,PH,1585692985
178,karratha,-20.74,116.85,84.33,27,100,9.01,AU,1585692985
179,ahipara,-35.17,173.17,64.83,73,99,5.23,NZ,1585692870
180,redmond,47.67,-122.12,52.0,61,75,9.17,US,1585692949
181,sinnamary,5.38,-52.95,79.74,81,99,13.71,GF,1585692985
182,shangrao,28.45,117.97,44.96,89,26,1.05,CN,1585692986
183,angoche,-16.23,39.91,75.13,81,2,8.3,MZ,1585692986
184,sitka,57.05,-135.33,37.4,40,20,5.82,US,1585692986
185,la asuncion,11.03,-63.86,86.0,55,68,20.8,VE,1585692986
186,sakaiminato,35.55,133.23,55.4,100,90,4.7,JP,1585692987
187,mnogovershinnyy,53.94,139.92,17.58,92,5,6.31,RU,1585692987
188,bo rai,12.57,102.54,79.0,80,80,0.67,TH,1585692987
189,suntar,62.14,117.63,11.57,94,93,8.7,RU,1585692728
190,changji,44.02,87.32,42.8,30,0,2.24,CN,1585692988
191,san patricio,19.22,-104.7,84.2,79,5,11.41,MX,1585692988
192,beloha,-25.17,45.05,70.77,85,29,10.89,MG,1585692988
193,bachaquero,9.97,-71.15,89.53,50,21,3.71,VE,1585692989
194,maheshwar,22.18,75.58,73.4,40,0,5.82,IN,1585692989
195,hami,42.8,93.45,43.63,35,0,13.85,CN,1585692989
196,verkhnechusovskiye gorodki,58.17,57.11,32.43,91,100,5.59,RU,1585692989
197,magomeni,-6.8,39.25,82.4,94,20,5.12,TZ,1585692743
198,kamenka,51.32,42.77,33.01,67,11,8.99,RU,1585692990
199,isangel,-19.55,169.27,78.8,94,75,17.16,VU,1585692990
200,solnechnyy,50.72,136.63,25.5,86,9,4.25,RU,1585692990
201,cabo san lucas,22.89,-109.91,80.01,44,40,11.41,MX,1585692795
202,ust-nera,64.57,143.2,4.35,81,100,3.02,RU,1585692991
203,udachnyy,66.42,112.4,-7.6,83,72,8.95,RU,1585692991
204,chengde,40.97,117.94,34.59,54,35,4.21,CN,1585692991
205,broome,42.25,-75.83,48.99,81,90,4.7,US,1585692992
206,port alfred,-33.59,26.89,68.67,79,99,17.67,ZA,1585692992
207,bac lieu,9.29,105.72,80.53,81,99,7.29,VN,1585692992
208,sala,34.04,-6.82,60.8,82,40,9.17,MA,1585692694
209,santiago del estero,-27.8,-64.26,74.01,85,98,6.33,AR,1585692993
210,upernavik,72.79,-56.15,-2.56,89,67,24.85,GL,1585692993
211,uyemskiy,64.47,40.85,23.0,49,40,6.71,RU,1585692993
212,touros,-5.2,-35.46,80.6,88,40,6.93,BR,1585692993
213,aklavik,68.22,-135.01,15.8,36,5,13.87,CA,1585692994
214,samus,56.75,84.7,30.99,74,54,8.95,RU,1585692994
215,pacific grove,36.62,-121.92,72.0,72,1,10.29,US,1585692994
216,buala,-8.14,159.59,82.26,78,100,5.86,SB,1585692994
217,poum,-20.23,164.02,77.58,77,39,15.99,NC,1585692994
218,port-gentil,-0.72,8.78,82.13,84,57,10.71,GA,1585692995
219,vila velha,-20.33,-40.29,79.0,88,75,3.36,BR,1585692962
220,castro,-24.79,-50.01,70.81,52,3,1.63,BR,1585692995
221,laguna,38.42,-121.42,73.99,49,20,4.7,US,1585692995
222,kaeo,-35.1,173.78,66.99,76,98,4.99,NZ,1585692996
223,wiang sa,8.64,99.37,72.79,78,3,1.48,TH,1585692996
224,lenoir city,35.8,-84.26,48.2,87,90,5.82,US,1585692996
225,taltal,-25.4,-70.48,71.24,63,26,6.29,CL,1585692996
226,iqaluit,63.75,-68.51,-2.2,58,20,3.36,CA,1585692996
227,mitsamiouli,-11.38,43.28,83.84,76,17,7.63,KM,1585692997
228,nicoya,10.15,-85.45,96.8,34,0,16.11,CR,1585692997
229,saint-georges,12.06,-61.75,84.2,58,20,11.41,GD,1585692732
230,champerico,14.3,-91.92,95.0,44,75,13.87,GT,1585692997
231,adrar,20.5,-10.07,80.67,21,99,3.94,MR,1585692998
232,tateyama,34.98,139.87,52.0,93,75,12.75,JP,1585692998
233,gravdal,68.12,13.5,33.93,87,78,25.93,NO,1585692998
234,tiarei,-17.53,-149.33,87.8,66,6,6.93,PF,1585692998
235,goundam,16.41,-3.67,88.27,15,30,11.81,ML,1585692999
236,naze,28.37,129.48,71.6,94,75,6.93,JP,1585692999
237,phan thiet,10.93,108.1,75.63,86,57,6.29,VN,1585692795
238,santa isabel do rio negro,-0.41,-65.02,81.68,93,100,0.76,BR,1585692999
239,tawang,27.58,91.87,43.12,29,91,0.89,IN,1585693000
240,xuanzhou,30.95,118.76,47.84,93,94,4.32,CN,1585693000
241,bluff,-46.6,168.33,53.01,98,31,4.07,NZ,1585693000
242,bathsheba,13.22,-59.52,80.6,57,20,14.99,BB,1585693000
243,porbandar,21.64,69.61,73.99,88,0,9.98,IN,1585693000
244,kuusamo,65.97,29.18,28.4,92,75,5.82,FI,1585693001
245,natal,-5.79,-35.21,80.6,88,40,6.93,BR,1585693001
246,khandyga,62.67,135.6,14.14,94,97,4.61,RU,1585692730
247,baruun-urt,46.68,113.28,23.97,60,0,9.62,MN,1585693001
248,hamilton,39.18,-84.53,46.99,65,90,6.93,US,1585692815
249,sestri levante,44.27,9.4,46.4,42,12,9.17,IT,1585693002
250,nichinan,31.6,131.37,59.0,100,75,4.43,JP,1585693002
251,thinadhoo,0.53,72.93,82.76,70,94,10.11,MV,1585693002
252,port lincoln,-34.73,135.87,62.56,76,100,5.64,AU,1585693002
253,torbay,47.67,-52.73,37.99,100,90,4.7,CA,1585693002
254,victoria,22.29,114.16,66.99,100,40,5.82,HK,1585693003
255,juneau,58.3,-134.42,30.2,30,75,16.11,US,1585693003
256,nyurba,63.28,118.33,13.06,94,99,8.52,RU,1585693003
257,miranda,3.25,-76.23,82.4,61,75,10.29,CO,1585693003
258,bismarck,46.81,-100.78,62.01,31,20,19.46,US,1585692888
259,batagay,67.63,134.63,1.9,90,97,1.12,RU,1585693004
260,siena,43.22,11.4,46.0,56,0,13.87,IT,1585693004
261,lensk,60.73,114.93,13.86,92,99,5.28,RU,1585693005
262,tumaco,1.8,-78.82,81.61,76,28,8.1,CO,1585693006
263,ayaviri,-14.89,-70.59,55.71,20,68,10.18,PE,1585693006
264,novoilinsk,51.68,108.71,28.87,72,31,5.66,RU,1585693006
265,frome,51.23,-2.32,43.0,69,63,6.93,GB,1585693006
266,lompoc,34.64,-120.46,82.0,41,77,12.75,US,1585693006
267,havre-saint-pierre,50.23,-63.6,37.4,64,90,31.09,CA,1585693007
268,zhezkazgan,47.8,67.71,38.62,62,100,11.36,KZ,1585693007
269,tawau,4.25,117.89,73.4,94,20,4.54,MY,1585693008
270,kahului,20.89,-156.47,75.2,73,40,14.99,US,1585693008
271,pasighat,28.07,95.33,67.89,50,67,3.22,IN,1585693008
272,barnstaple,51.08,-4.06,45.0,84,16,5.82,GB,1585693008
273,zambezi,-13.54,23.1,68.97,65,100,3.89,ZM,1585693009
274,nara,34.69,135.8,59.0,82,75,16.11,JP,1585693009
275,kenai,60.55,-151.26,28.99,58,1,3.36,US,1585692806
276,necochea,-38.55,-58.74,62.01,69,77,1.99,AR,1585693009
277,yanam,16.73,82.22,78.89,81,1,3.98,IN,1585693009
278,hella,67.2,14.43,35.6,74,40,21.92,NO,1585693010
279,bambari,5.77,20.68,82.06,47,9,3.11,CF,1585693010
280,bossangoa,6.49,17.46,78.17,50,17,4.12,CF,1585692913
281,staraya poltavka,50.48,46.48,47.08,69,0,15.35,RU,1585693010
282,chimbarongo,-34.7,-71.05,80.6,27,22,11.41,CL,1585693011
283,umea,63.83,20.26,35.6,59,0,19.46,SE,1585693011
284,desaguadero,-16.57,-69.04,51.44,23,53,9.69,PE,1585693011
285,atar,20.52,-13.05,86.13,23,100,7.18,MR,1585693011
286,mizan teferi,6.98,35.58,65.37,57,52,3.15,ET,1585693012
287,capao bonito,-24.01,-48.35,71.44,64,0,5.26,BR,1585693012
288,juterbog,51.98,13.08,36.0,73,0,1.12,DE,1585693012
289,narsaq,60.92,-46.05,33.8,69,20,3.36,GL,1585693013
290,am timan,11.03,20.28,84.61,13,7,4.05,TD,1585693013
291,acapulco,16.86,-99.89,86.0,74,40,9.17,MX,1585692969
292,cherskiy,68.75,161.3,-2.06,91,80,8.99,RU,1585693013
293,portland,45.52,-122.68,54.0,70,90,4.7,US,1585692618
294,yerbogachen,61.28,108.01,16.32,94,100,5.59,RU,1585692728
295,provideniya,64.38,-173.3,24.8,79,75,2.24,RU,1585693014
296,ardmore,34.17,-97.14,66.99,42,1,3.36,US,1585693014
297,serro,-18.6,-43.38,70.05,71,43,3.38,BR,1585693015
298,dikson,73.51,80.55,-2.52,93,100,6.62,RU,1585693015
299,port hardy,50.7,-127.42,46.4,65,75,13.87,CA,1585692905
300,kiama,-34.68,150.87,71.01,100,75,3.36,AU,1585693016
301,puquio,-14.7,-74.13,57.56,27,87,5.26,PE,1585693016
302,lufilufi,-13.87,-171.6,86.0,74,70,9.24,WS,1585693016
303,hay river,60.82,-115.8,-4.0,58,20,5.82,CA,1585692852
304,mahebourg,-20.41,57.7,78.01,94,75,8.52,MU,1585693017
305,antofagasta,-23.65,-70.4,68.0,68,75,10.29,CL,1585693017
306,nagato,34.38,131.2,55.99,93,90,1.12,JP,1585693017
307,deputatskiy,69.3,139.9,-10.3,82,4,1.9,RU,1585693017
308,gezing,47.92,13.13,33.01,88,40,1.12,AT,1585693017
309,stornoway,58.21,-6.39,42.8,81,100,12.75,GB,1585693018
310,khovu-aksy,51.13,93.6,12.34,76,0,7.63,RU,1585693018
311,krasnoselkup,65.7,82.47,6.93,94,18,9.42,RU,1585693018
312,ketchikan,55.34,-131.65,42.8,38,20,11.41,US,1585692782
313,sambava,-14.27,50.17,78.15,87,95,3.13,MG,1585693018
314,stephenville,32.22,-98.2,68.0,52,1,8.05,US,1585693019
315,debar,41.52,20.53,51.8,62,75,4.7,MK,1585692957
316,mezen,65.85,44.24,17.91,95,100,7.09,RU,1585693019
317,asau,46.43,26.4,30.2,54,35,4.7,RO,1585693019
318,willowmore,-33.29,23.49,54.88,55,6,7.38,ZA,1585693019
319,madingou,-4.15,13.55,76.57,81,48,0.87,CG,1585693020
320,paracuru,-3.41,-39.03,82.0,88,75,4.7,BR,1585693020
321,clyde river,70.47,-68.59,3.2,71,90,17.22,CA,1585693021
322,nhulunbuy,-12.23,136.77,78.8,94,97,8.95,AU,1585693021
323,kefamenanu,-9.45,124.48,70.36,80,99,2.37,ID,1585693021
324,roquetas de mar,36.76,-2.61,60.8,87,40,6.93,ES,1585693022
325,carutapera,-1.2,-46.02,80.91,83,100,5.1,BR,1585693022
326,lasa,46.62,10.7,44.6,62,5,5.82,IT,1585693022
327,halifax,44.65,-63.57,34.0,86,90,13.87,CA,1585693022
328,minab,27.15,57.08,64.4,93,0,4.7,IR,1585693023
329,cabangahan,9.08,122.95,82.4,69,75,4.7,PH,1585693023
330,yakeshi,49.28,120.73,21.99,86,0,11.65,CN,1585693024
331,camacha,33.08,-16.33,59.0,58,20,11.41,PT,1585693024
332,nyaunglebin,17.95,96.73,70.12,84,0,2.73,MM,1585693024
333,antalaha,-14.9,50.28,79.38,83,94,4.94,MG,1585693024
334,ensley,30.52,-87.27,80.6,36,1,18.34,US,1585693024
335,dubuque,42.48,-90.87,46.0,61,90,13.87,US,1585693025
336,san roque,36.21,-5.38,60.8,87,80,9.17,ES,1585693025
337,chabahar,25.29,60.64,72.64,70,0,9.98,IR,1585693025
338,talnakh,69.49,88.4,10.4,92,75,20.13,RU,1585692816
339,dinghai,26.28,119.79,57.2,100,90,8.95,CN,1585693026
340,preobrazheniye,42.9,133.91,39.06,85,96,6.73,RU,1585693026
341,luwuk,-0.95,122.79,80.56,71,99,3.71,ID,1585693026
342,ambilobe,-13.2,49.05,76.64,89,71,1.99,MG,1585693027
343,novikovo,51.15,37.89,29.7,86,16,10.49,RU,1585693027
344,aksarka,66.56,67.8,8.35,92,11,9.01,RU,1585693027
345,jurm,36.86,70.83,45.54,30,100,4.65,AF,1585693027
346,senanga,-16.12,23.27,69.87,66,99,2.86,ZM,1585693028
347,cheney,47.49,-117.58,44.6,60,90,12.75,US,1585693028
348,sao filipe,14.9,-24.5,74.41,78,79,13.4,CV,1585693028
349,bahia blanca,-38.72,-62.27,68.0,72,90,14.99,AR,1585693028
350,kushmurun,52.45,64.63,27.01,91,99,8.66,KZ,1585693029
351,coromandel,-18.47,-47.2,71.71,67,5,2.53,BR,1585693029
352,colgong,25.27,87.22,76.55,22,0,2.39,IN,1585693029
353,port augusta,-32.5,137.77,66.0,82,90,4.7,AU,1585693029
354,macklin,52.33,-109.93,13.42,87,100,15.12,CA,1585692797
355,lucea,18.45,-78.17,82.4,69,40,4.7,JM,1585693030
356,luderitz,-26.65,15.16,64.4,63,0,11.41,NA,1585693030
357,cochrane,51.18,-114.47,19.99,66,90,6.93,CA,1585692815
358,haicheng,40.85,122.75,38.37,56,5,10.27,CN,1585693031
359,ribeira grande,38.52,-28.7,57.18,67,95,28.79,PT,1585693031
360,goya,-29.14,-59.26,77.47,72,99,3.56,AR,1585693031
361,oistins,13.07,-59.53,80.6,57,20,14.99,BB,1585693031
362,bani,18.28,-70.33,82.0,68,0,1.99,DO,1585693031
363,yeppoon,-23.13,150.73,73.4,83,4,8.05,AU,1585693032
364,ossora,59.24,163.07,12.85,91,0,6.91,RU,1585693032
365,irbeyskoye,55.64,95.45,34.72,77,90,7.52,RU,1585693032
366,praia da vitoria,38.73,-27.07,57.2,71,75,24.32,PT,1585693032
367,tamiahua,21.27,-97.45,82.44,70,12,9.89,MX,1585693032
368,yumen,40.28,97.2,32.72,46,40,16.22,CN,1585693033
369,chincha alta,-13.41,-76.13,71.6,30,75,5.82,PE,1585693033
370,foix,42.83,1.58,46.99,88,100,3.09,FR,1585693033
371,belmonte,-15.86,-38.88,80.6,74,20,8.05,BR,1585693033
372,te anau,-45.42,167.72,52.2,65,28,0.74,NZ,1585693033
373,hatten,53.02,8.35,34.0,80,0,3.36,DE,1585693034
374,isabela,6.71,121.97,77.0,94,75,2.24,PH,1585693034
375,muroto,33.28,134.15,57.2,100,75,5.82,JP,1585693035
376,north las vegas,36.2,-115.12,75.0,21,1,4.7,US,1585692959
377,hereford,52.06,-2.71,44.01,69,17,1.01,GB,1585692931
378,butembo,0.15,29.28,60.15,57,90,2.35,CD,1585693035
379,yarada,17.65,83.27,81.46,75,0,8.75,IN,1585693036
380,huarmey,-10.07,-78.15,79.38,61,53,8.55,PE,1585693036
381,skjervoy,70.03,20.97,29.62,95,100,21.72,NO,1585693036
382,altar,30.7,-111.82,83.01,12,98,5.46,MX,1585693036
383,north bend,43.41,-124.22,53.01,71,40,11.41,US,1585693037
384,dingle,11.0,122.67,77.07,83,94,7.11,PH,1585693037
385,san pedro de macoris,18.46,-69.3,82.4,69,20,8.05,DO,1585692941
386,kruisfontein,-34.0,24.73,59.56,81,0,12.19,ZA,1585693037
387,beringovskiy,63.05,179.32,30.22,94,97,16.64,RU,1585693038
388,vestmannaeyjar,63.44,-20.27,41.61,77,95,26.91,IS,1585693038
389,les cayes,18.2,-73.75,80.65,69,21,5.88,HT,1585693038
390,pringsewu,-5.36,104.97,74.16,89,100,2.44,ID,1585693039
391,moindou,-21.69,165.68,80.6,57,0,2.24,NC,1585693039
392,sotouboua,8.57,0.98,86.34,49,52,2.73,TG,1585693039
393,oksbol,55.63,8.29,43.0,93,99,14.99,DK,1585692787
394,guilin,25.28,110.29,51.8,100,40,3.67,CN,1585693040
395,amuntai,-2.42,115.25,74.01,92,94,0.67,ID,1585693040
396,dubovskoye,47.41,42.76,47.34,66,0,10.02,RU,1585693040
397,christchurch,-43.53,172.63,57.0,82,0,4.7,NZ,1585692793
398,paita,-5.09,-81.11,79.48,61,21,15.19,PE,1585693040
399,sioux lookout,50.1,-91.92,51.8,20,20,2.24,CA,1585692775
400,berlevag,70.86,29.09,26.6,73,40,10.29,NO,1585693041
401,ancud,-41.87,-73.82,60.8,48,40,12.75,CL,1585693041
402,west warwick,41.7,-71.52,48.2,49,20,10.29,US,1585692970
403,mangotsfield,51.49,-2.5,44.01,69,56,6.93,GB,1585693041
404,alekseyevka,50.63,38.69,30.65,87,0,9.28,RU,1585693042
405,pitimbu,-7.47,-34.81,80.6,83,20,6.93,BR,1585692803
406,san lorenzo,-25.33,-57.53,93.2,46,20,3.36,PY,1585693042
407,sao miguel do araguaia,-13.28,-50.16,80.35,72,19,2.89,BR,1585693042
408,esperance,-33.87,121.9,53.6,93,75,3.36,AU,1585693043
409,atherton,53.52,-2.49,46.0,75,90,3.36,GB,1585693043
410,alta floresta,-9.88,-56.09,89.6,62,20,4.7,BR,1585693043
411,college,64.86,-147.8,27.0,29,1,8.05,US,1585693044
412,storm lake,42.64,-95.21,60.8,26,1,12.75,US,1585693044
413,opuwo,-18.06,13.84,70.66,36,0,2.35,NA,1585693045
414,pangody,65.85,74.49,12.24,93,99,8.16,RU,1585693045
415,westport,41.14,-73.36,48.2,56,90,6.93,US,1585693045
416,alexandria,31.22,29.96,62.6,72,40,18.34,EG,1585692774
417,kampene,-3.6,26.67,69.98,82,100,2.28,CD,1585693046
418,dauphin,51.15,-100.05,55.4,54,75,14.99,CA,1585692920
419,hambantota,6.12,81.12,75.2,100,20,3.36,LK,1585693046
420,akdepe,42.06,59.38,51.8,71,90,9.17,TM,1585693046
421,bandarbeyla,9.49,50.81,80.55,77,14,8.79,SO,1585693046
422,ruteng,-8.61,120.47,65.07,75,91,2.51,ID,1585693047
423,merauke,-8.47,140.33,78.69,88,97,4.43,ID,1585693047
424,san pedro,14.35,121.02,78.8,78,20,4.5,PH,1585693047
425,siocon,7.71,122.14,79.95,74,45,11.68,PH,1585693048
426,seoul,37.57,126.98,51.8,43,1,3.74,KR,1585693048
427,havelock,34.88,-76.9,59.0,67,90,18.34,US,1585692848
428,margate,51.38,1.39,42.01,86,0,4.7,GB,1585693048
429,pangnirtung,66.15,-65.71,-11.2,47,5,14.99,CA,1585693049
430,barranca,-10.75,-77.77,76.86,66,73,8.88,PE,1585693049
431,chicama,-7.84,-79.15,78.64,60,92,8.57,PE,1585693049
432,simiti,7.96,-73.94,94.87,40,80,5.53,CO,1585693049
433,kropotkin,45.44,40.58,45.97,75,38,5.73,RU,1585693050
434,noyabrsk,63.2,75.45,20.79,97,100,7.31,RU,1585693050
435,brigantine,39.41,-74.36,45.0,70,90,5.82,US,1585693050
436,callaway,30.15,-85.57,77.0,78,75,16.11,US,1585693050
437,sao joao da barra,-21.64,-41.05,78.8,78,8,6.93,BR,1585693050
438,sao felix do xingu,-6.64,-51.99,79.38,85,99,1.41,BR,1585693051
439,fougeres,48.35,-1.2,43.0,76,0,10.29,FR,1585692872
440,jiangyou,31.77,104.72,56.91,64,100,0.76,CN,1585693051
441,guhagar,17.48,73.19,79.02,63,36,11.74,IN,1585693052
442,rio grande,-32.03,-52.1,71.6,88,90,13.87,BR,1585692928
443,atchison,39.56,-95.12,69.01,30,40,2.73,US,1585693052
444,bourail,-21.57,165.48,74.01,68,0,6.38,NC,1585693052
445,progreso,21.28,-89.67,89.6,52,20,11.41,MX,1585693052
446,odweyne,9.41,45.06,78.93,42,5,4.0,SO,1585693053
447,griffith,41.53,-87.42,43.0,86,90,12.75,US,1585692773
448,kavaratti,10.57,72.64,82.9,77,0,14.23,IN,1585693053
449,pathein,16.78,94.73,73.45,81,0,7.36,MM,1585693053
450,great bend,38.36,-98.76,69.8,40,1,12.75,US,1585693008
451,kirakira,-10.45,161.92,79.79,86,100,9.89,SB,1585693054
452,moron,-34.65,-58.62,73.4,83,75,17.22,AR,1585693054
453,itupiranga,-5.13,-49.33,78.8,100,75,1.92,BR,1585693054
454,vaasa,63.1,21.62,35.6,64,17,16.11,FI,1585693054
455,fairbanks,64.84,-147.72,27.0,32,1,11.41,US,1585692906
456,mogadishu,2.04,45.34,83.8,78,87,15.1,SO,1585693055
457,brae,60.4,-1.35,46.4,87,98,18.34,GB,1585693055
458,ilhabela,-23.78,-45.36,76.28,81,42,8.3,BR,1585693056
459,lodja,-3.48,23.43,72.25,84,100,1.59,CD,1585693056
460,longyearbyen,78.22,15.64,-2.2,84,20,2.24,SJ,1585693057
461,sayat,38.78,63.88,55.4,87,75,9.17,TM,1585693057
462,walvis bay,-22.96,14.51,59.0,89,0,1.01,NA,1585693057
463,tubuala,9.52,-79.03,88.0,55,40,13.87,PA,1585693057
464,batagay-alyta,67.8,130.41,-8.59,75,84,1.99,RU,1585693058
465,grand gaube,-20.01,57.66,78.01,94,75,10.16,MU,1585693058
466,kodinsk,58.69,99.18,36.55,84,100,12.62,RU,1585693058
467,maine-soroa,13.21,12.02,89.47,25,100,6.53,NE,1585693058
468,pokhara,28.23,83.98,62.06,25,78,4.5,NP,1585693059
469,caravelas,-17.71,-39.25,79.43,84,77,9.01,BR,1585693059
470,carrollton,32.95,-96.89,69.01,55,75,6.93,US,1585693059
471,leshukonskoye,64.9,45.76,15.12,94,19,4.47,RU,1585693059
472,mamallapuram,12.63,80.17,82.0,83,20,2.24,IN,1585693060
473,mitu,1.2,-70.17,83.97,65,72,0.47,CO,1585693060
474,mount gambier,-37.83,140.77,48.2,100,90,4.23,AU,1585693060
475,san luis,-33.3,-66.34,70.97,62,93,5.1,AR,1585693060
476,kulhudhuffushi,6.62,73.07,83.8,75,31,8.08,MV,1585693061
477,tumbagaan,5.37,120.31,81.34,80,86,13.51,PH,1585693061
478,mercedes,-34.65,-59.43,72.0,81,70,1.99,AR,1585693061
479,ocos,14.51,-92.19,95.0,55,40,20.8,GT,1585693061
480,witu,-2.39,40.44,82.42,79,18,7.11,KE,1585693062
481,naxos,37.11,25.38,57.0,82,13,11.41,GR,1585693062
482,salta,-24.79,-65.41,77.0,73,75,6.93,AR,1585692916
483,pitangui,-19.68,-44.89,73.29,65,40,0.34,BR,1585693062
484,iquitos,-3.75,-73.25,42.8,100,40,3.36,PE,1585693063
485,balad,34.02,44.15,69.84,37,100,15.12,IQ,1585693063
486,bandar-e lengeh,26.56,54.88,71.6,56,0,4.7,IR,1585693063
487,katsuura,35.13,140.3,52.0,93,75,12.75,JP,1585693063
488,yulara,-25.24,130.99,68.0,88,96,4.7,AU,1585693063
489,port blair,11.67,92.75,81.12,74,71,4.25,IN,1585692793
490,manuk mangkaw,4.8,119.85,81.82,77,71,5.46,PH,1585693064
491,aykhal,66.0,111.5,-7.6,83,100,8.95,RU,1585693064
492,gamba,-2.65,10.0,80.06,84,1,7.2,GA,1585693064
493,druten,51.88,5.6,39.99,74,0,3.36,NL,1585693065
494,umm lajj,25.02,37.27,77.58,36,14,5.01,SA,1585693065
495,santa maria,-29.68,-53.81,86.0,51,20,5.82,BR,1585692842
496,kupang,-10.17,123.58,73.4,100,20,3.36,ID,1585693065
497,bagaha,27.1,84.08,72.34,21,29,3.24,IN,1585693066
498,sulangan,11.14,123.72,79.23,80,61,8.72,PH,1585693066
499,mana,5.66,-53.78,79.18,79,100,10.07,GF,1585693066
500,vardo,70.37,31.11,23.0,92,75,13.87,NO,1585693066
501,maldonado,-34.67,-54.92,68.0,82,75,13.87,UY,1585692866
502,chambishi,-12.63,28.05,64.54,66,59,2.19,ZM,1585693067
503,martapura,-3.42,114.85,75.47,88,99,1.28,ID,1585693067
504,gobabis,-22.45,18.97,68.0,82,32,3.36,NA,1585693067
505,weihai,37.5,122.11,45.39,57,100,23.33,CN,1585692798
506,buraydah,26.33,43.98,75.2,41,32,17.22,SA,1585693068
507,srostki,52.42,85.7,24.69,93,0,3.98,RU,1585693068
508,lowestoft,52.48,1.75,39.99,72,9,7.23,GB,1585693068
509,atambua,-9.11,124.89,73.63,79,77,2.75,ID,1585693069
510,la union,-5.4,-80.75,82.11,56,51,19.51,PE,1585693069
511,bambanglipuro,-7.95,110.28,77.47,81,100,2.21,ID,1585693069
512,penha,-26.77,-48.65,80.6,83,40,9.17,BR,1585692858
513,calamar,10.25,-74.91,87.8,66,40,14.99,CO,1585693070
514,presidencia roque saenz pena,-26.79,-60.44,84.24,64,100,7.38,AR,1585693070
515,riyadh,24.69,46.72,71.6,21,1,5.82,SA,1585693070
516,mayskiy,47.69,40.1,39.99,60,4,11.18,RU,1585693070
517,chernyshevskiy,63.01,112.47,-4.07,87,0,6.76,RU,1585693070
518,biak,-0.91,122.88,80.2,72,98,4.74,ID,1585693071
519,ambulu,-8.35,113.61,78.3,78,56,2.75,ID,1585693071
520,ypsonas,34.69,32.96,62.6,82,40,11.41,CY,1585693071
521,krasnyy chikoy,50.36,108.75,26.51,67,11,4.0,RU,1585693071
522,puerto del rosario,28.5,-13.86,68.0,64,20,6.93,ES,1585693072
523,plouzane,48.38,-4.62,44.01,75,3,16.11,FR,1585693072
524,yantal,56.85,105.25,34.54,80,100,14.23,RU,1585693072
525,chumikan,54.72,135.31,25.39,89,0,12.59,RU,1585693073
526,komsomolskiy,40.43,71.72,59.0,58,100,4.7,UZ,1585693073
527,san cristobal,7.77,-72.22,84.2,62,40,8.05,VE,1585693073
528,andenes,69.31,16.12,30.2,86,100,23.04,NO,1585693073
529,iwanai,42.97,140.51,38.17,84,100,1.9,JP,1585693074
530,staroaleyskoye,51.01,82.0,25.14,83,0,2.62,RU,1585693074
531,longview,32.5,-94.74,68.0,52,75,6.93,US,1585693074
532,cabo rojo,18.09,-67.15,81.0,67,90,9.17,PR,1585693075
533,komatipoort,-25.43,31.95,71.6,73,29,3.36,ZA,1585693075
534,saint-michel-des-saints,46.68,-73.92,34.77,78,82,8.43,CA,1585693075
535,kitakata,37.65,139.87,53.01,100,75,3.36,JP,1585693075
536,maragogi,-9.01,-35.22,80.96,76,95,7.56,BR,1585693075
537,concarneau,47.88,-3.92,44.01,75,0,12.75,FR,1585693076
538,moose factory,51.26,-80.61,39.2,64,1,11.41,CA,1585693076
539,skibbereen,51.55,-9.27,44.6,65,75,10.29,IE,1585693076
540,erenhot,43.65,111.98,29.12,45,0,4.83,CN,1585693076
541,le pradet,43.11,6.02,54.0,71,55,4.7,FR,1585693077
542,kapoeta,4.77,33.59,84.54,41,49,5.53,SS,1585693077
543,maniitsoq,65.42,-52.9,9.21,90,100,11.3,GL,1585693077
544,obo,5.4,26.49,77.94,51,0,4.41,CF,1585693077
545,nalut,30.33,10.85,64.09,22,0,9.24,LY,1585693078
546,calama,-22.47,-68.93,77.0,22,0,31.09,CL,1585693078
547,mandalgovi,45.76,106.27,23.76,47,0,8.32,MN,1585693078
548,beja,36.73,9.18,57.2,87,40,4.7,TN,1585693078
549,kurunegala,7.49,80.36,80.6,88,0,1.12,LK,1585693079
550,port shepstone,-30.74,30.45,75.06,78,87,19.3,ZA,1585693079
551,hovd,48.01,91.64,19.06,62,0,4.45,MN,1585693079
552,tuatapere,-46.13,167.68,53.01,98,51,3.13,NZ,1585693079
553,chuguyevka,44.17,133.86,37.4,82,100,4.27,RU,1585693079
554,manzhouli,49.6,117.43,30.13,63,80,16.06,CN,1585693080
555,jiuquan,39.74,98.52,32.04,48,79,6.64,CN,1585693080
556,itapetininga,-23.59,-48.05,72.43,66,10,7.61,BR,1585693036
557,pombia,45.65,8.63,44.01,69,40,4.7,IT,1585693080
558,jimo,36.39,120.46,48.0,65,50,8.95,CN,1585693080
559,ayame,5.61,-3.16,77.54,91,76,2.95,CI,1585693081
560,general pico,-35.66,-63.76,68.54,82,97,11.72,AR,1585693081
561,bol,13.46,14.71,89.51,34,75,8.88,TD,1585693081
562,nsanje,-16.92,35.26,68.86,80,13,4.32,MW,1585693081
563,severomuysk,56.15,113.43,14.76,85,92,6.85,RU,1585693082
564,port moresby,-9.44,147.18,77.0,100,75,4.7,PG,1585693082
565,aasiaat,68.71,-52.87,2.19,87,100,17.52,GL,1585693082
566,port macquarie,-31.43,152.92,69.01,100,18,4.7,AU,1585693082
567,porkhov,57.77,29.56,32.0,82,100,8.95,RU,1585693083
568,rafraf,37.19,10.18,59.0,87,20,2.24,TN,1585692859
569,vanimo,-2.67,141.3,78.62,83,100,5.08,PG,1585693083
570,ampanihy,-24.7,44.75,69.31,85,42,9.69,MG,1585693028
571,notre-dame-du-lac,47.61,-68.8,39.2,38,90,12.75,CA,1585693083
572,vitim,59.45,112.56,23.9,95,100,2.1,RU,1585693084
573,derzhavinsk,51.1,66.32,28.4,92,83,11.39,KZ,1585693084
574,malakal,9.53,31.66,87.24,11,50,4.83,SS,1585693084
575,pedernales,18.04,-71.74,82.96,59,8,8.7,DO,1585693085
